{"type":"FeatureCollection","features":[{"type":"Feature","properties":{"name":"Campbell River","note":"city"},"geometry":{"type":"Point","coordinates":[-125.247,50.033]}},{"type":"Feature","properties":{"name":"Quinsam","note":"river, hatchery"},"geometry":{"type":"Point","coordinates":[-125.33,50.02]}},{"type":"Feature","properties":{"name":"Elk Falls Park","note":"provincial park, canyon"},"geometry":{"type":"Point","coordinates":[-125.33,50.055]}},{"type":"Feature","properties":{"name":"Gosling Lake","note":"lake, Sayward Forest"},"geometry":{"type":"Point","coordinates":[-125.56,50.08]}},{"type":"Feature","properties":{"name":"Sayward Forest","note":"intensively logged area"},"geometry":{"type":"Point","coordinates":[-125.65,50.18]}}]}