{"type":"FeatureCollection","features":[{"type":"Feature","properties":{"PROJECT_NAME":"FATHER & SON LAKE","FOREST_FILE_ID":"REC0467","OBJECTID":8387},"geometry":{"type":"Point","coordinates":[-124.63071,49.11347]}},{"type":"Feature","properties":{"PROJECT_NAME":"NAHMINT LAKE","FOREST_FILE_ID":"REC3068","OBJECTID":8388},"geometry":{"type":"Point","coordinates":[-125.0741,49.19459]}},{"type":"Feature","properties":{"PROJECT_NAME":"BLACKIES BEACH","FOREST_FILE_ID":"REC6407","OBJECTID":8392},"geometry":{"type":"Point","coordinates":[-125.06063,49.17215]}},{"type":"Feature","properties":{"PROJECT_NAME":"ARDEN CREEK","FOREST_FILE_ID":"REC0214","OBJECTID":8386},"geometry":{"type":"Point","coordinates":[-124.81346,49.1416]}},{"type":"Feature","properties":{"PROJECT_NAME":"SNOW CREEK","FOREST_FILE_ID":"REC3128","OBJECTID":8389},"geometry":{"type":"Point","coordinates":[-125.18171,49.27272]}},{"type":"Feature","properties":{"PROJECT_NAME":"SCOUT BEACH","FOREST_FILE_ID":"REC5750","OBJECTID":8391},"geometry":{"type":"Point","coordinates":[-125.12527,49.36481]}},{"type":"Feature","properties":{"PROJECT_NAME":"STAMP RIVER TRAIL","FOREST_FILE_ID":"REC6400","OBJECTID":19679},"geometry":{"type":"Point","coordinates":[-124.90168,49.31729]}},{"type":"Feature","properties":{"PROJECT_NAME":"LOWRY LAKE","FOREST_FILE_ID":"REC3129","OBJECTID":8390},"geometry":{"type":"Point","coordinates":[-125.13212,49.38776]}}]}